[
  { "title": "Karnak Temple Complex", "description": "Massive temple complex dedicated to the Theban Triad, spanning over 2000 years of construction.", "location": { "lat": 25.7188, "lng": 32.6573 } },
  { "title": "Luxor Temple", "description": "Ancient temple on the east bank of the Nile, largely built by Amenhotep III and Ramesses II.", "location": { "lat": 25.6995, "lng": 32.6396 } },
  { "title": "Luxor Museum", "description": "Elegant museum displaying a high-quality collection of antiquities like the Luxor Cachette.", "location": { "lat": 25.7077, "lng": 32.6444 } },
  { "title": "Mummification Museum", "description": "Unique museum on the corniche dedicated to the art and science of ancient Egyptian mummification.", "location": { "lat": 25.7047, "lng": 32.6425 } },
  { "title": "Avenue of Sphinxes", "description": "The 2.7 km ancient processional path connecting Karnak and Luxor Temples.", "location": { "lat": 25.7090, "lng": 32.6460 } },
  { "title": "Mosque of Abu Haggag", "description": "Historic mosque integrated into the structure of Luxor Temple, dating back to the Ayyubid period.", "location": { "lat": 25.7001, "lng": 32.6397 } },
  { "title": "Valley of the Kings", "description": "Royal burial ground for pharaohs of the New Kingdom, hidden in the Theban hills.", "location": { "lat": 25.7402, "lng": 32.6019 } },
  { "title": "Tomb of Tutankhamun (KV62)", "description": "Famous tomb of the Boy King found intact by Howard Carter in 1922.", "location": { "lat": 25.7405, "lng": 32.6019 } },
  { "title": "Tomb of Seti I (KV17)", "description": "One of the longest and most beautifully decorated tombs in the Valley of the Kings.", "location": { "lat": 25.7397, "lng": 32.6000 } },
  { "title": "Tomb of Ramesses VI (KV9)", "description": "Spectacular tomb known for its well-preserved astronomical ceilings.", "location": { "lat": 25.7400, "lng": 32.6010 } },
  { "title": "Tomb of Ay (WV23)", "description": "Hidden gem located in the Western Valley (Valley of the Monkeys).", "location": { "lat": 25.7460, "lng": 32.5800 } },
  { "title": "Mortuary Temple of Hatshepsut", "description": "Magnificent terraced temple at Deir el-Bahari, built by the female pharaoh Hatshepsut.", "location": { "lat": 25.7369, "lng": 32.6053 } },
  { "title": "Colossi of Memnon", "description": "Two massive stone statues of Amenhotep III that heavily guarded his ruined mortuary temple.", "location": { "lat": 25.7205, "lng": 32.6105 } },
  { "title": "Medinet Habu (Temple of Ramesses III)", "description": "Best preserved mortuary temple on the West Bank, known for its deep reliefs and massive pylons.", "location": { "lat": 25.7196, "lng": 32.6006 } },
  { "title": "Ramesseum", "description": "The mortuary temple of Ramesses II, featuring the fallen colossus that inspired Ozymandias.", "location": { "lat": 25.7277, "lng": 32.6104 } },
  { "title": "Valley of the Queens", "description": "Burial place for royal wives and princes of the New Kingdom.", "location": { "lat": 25.7280, "lng": 32.5930 } },
  { "title": "Tomb of Nefertari (QV66)", "description": "Known as the Sistine Chapel of Ancient Egypt due to its stunningly preserved colorful murals.", "location": { "lat": 25.7283, "lng": 32.5925 } },
  { "title": "Deir el-Medina", "description": "The village of the artisans who built and decorated the royal tombs.", "location": { "lat": 25.7283, "lng": 32.6008 } },
  { "title": "Tomb of Sennedjem (TT1)", "description": "Beautifully preserved artisan's tomb in Deir el-Medina depicting scenes of the afterlife.", "location": { "lat": 25.7286, "lng": 32.6010 } },
  { "title": "Tomb of Inherkhau (TT359)", "description": "Artisan tomb with distinctive artistic style and vivid colors.", "location": { "lat": 25.7285, "lng": 32.6012 } },
  { "title": "Temple of Hathor (Deir el-Medina)", "description": "A small, well-preserved Ptolemaic temple dedicated to Hathor and Maat within the workers' village.", "location": { "lat": 25.7295, "lng": 32.6015 } },
  { "title": "Tombs of the Nobles (Sheikh Abd el-Qurna)", "description": "Final resting places of powerful courtiers and officials, featuring scenes of daily life.", "location": { "lat": 25.7323, "lng": 32.6074 } },
  { "title": "Tomb of Rekhmire (TT100)", "description": "Grand tomb of a Vizier, famous for scenes of foreign tribute bearers.", "location": { "lat": 25.7317, "lng": 32.6075 } },
  { "title": "Tomb of Sennefer (TT96)", "description": "Known as the Tomb of the Vineyards for its remarkable ceiling painted with grapevines.", "location": { "lat": 25.7314, "lng": 32.6077 } },
  { "title": "Tomb of Ramose (TT55)", "description": "Nobleman's tomb showing the transition between traditional and Amarna art styles.", "location": { "lat": 25.7311, "lng": 32.6080 } },
  { "title": "Tomb of Nakht (TT52)", "description": "Small but exquisitely painted tomb of a scribe and astronomer.", "location": { "lat": 25.7330, "lng": 32.6085 } },
  { "title": "Tomb of Menna (TT69)", "description": "Vividly colored tomb of a scribe of the fields, featuring agricultural scenes.", "location": { "lat": 25.7331, "lng": 32.6086 } },
  { "title": "Mortuary Temple of Seti I (Qurna)", "description": "Often overlooked mortuary temple of Seti I on the edge of the cultivation.", "location": { "lat": 25.7323, "lng": 32.6186 } },
  { "title": "Temple of Isis at Deir Shelwit", "description": "Hidden gem: Small Roman-era temple dedicated to Isis, located south of Medinet Habu.", "location": { "lat": 25.6888, "lng": 32.5855 } },
  { "title": "Howard Carter House", "description": "Restored residence of the archaeologist who discovered Tutankhamun's tomb, now a museum.", "location": { "lat": 25.7443, "lng": 32.6146 } },
  { "title": "Palace of Malkata", "description": "Ruins of the vast palace complex of Amenhotep III.", "location": { "lat": 25.7150, "lng": 32.5930 } },
  { "title": "Temple of Esna (Khnum)", "description": "Ptolemaic and Roman temple known for its hypostyle hall with well-preserved astronomical ceiling.", "location": { "lat": 25.2933, "lng": 32.5558 } },
  { "title": "Temple of Montu at Tod", "description": "Hidden gem: Ruins of a temple dedicated to the war god Montu.", "location": { "lat": 25.5833, "lng": 32.5333 } },
  { "title": "Temple of Montu at Medamud", "description": "Archaeological site northeast of Luxor features remains of a temple to Montu.", "location": { "lat": 25.7667, "lng": 32.7167 } },
  { "title": "Necropolis of El-Mo'alla", "description": "Site of the First Intermediate Period tombs of Ankhtifi and Sobekhotep.", "location": { "lat": 25.4833, "lng": 32.5167 } },
  { "title": "Tombs of Dra' Abu el-Naga", "description": "Necropolis area containing tombs mostly from the 17th and 18th Dynasties.", "location": { "lat": 25.7360, "lng": 32.6130 } },
  { "title": "Tomb of Roy (TT255)", "description": "Small New Kingdom tomb in Dra' Abu el-Naga known for its colorful solar scenes.", "location": { "lat": 25.7361, "lng": 32.6132 } },
  { "title": "Tomb of Shuroy (TT13)", "description": "Ramesside tomb in Dra' Abu el-Naga belonging to the head of the brazier-bearers of Amun.", "location": { "lat": 25.7362, "lng": 32.6135 } },
  { "title": "Roman Temple at Shanhur", "description": "Hidden gem: Remains of a Roman temple located north of Luxor near Qus.", "location": { "lat": 25.8600, "lng": 32.7800 } },
  { "title": "El-Assasif Tombs", "description": "Area containing large tombs from the 25th and 26th Dynasties, such as Pabasa.", "location": { "lat": 25.7350, "lng": 32.6090 } },
  { "title": "Tomb of Kheruef (TT192)", "description": "Largest private tomb in the Theban necropolis, dating to the reign of Amenhotep III and IV.", "location": { "lat": 25.7345, "lng": 32.6105 } },
  { "title": "Karnak Open Air Museum", "description": "Located within Karnak, housing reconstructed chapels like the White Chapel.", "location": { "lat": 25.7190, "lng": 32.6570 } },
  { "title": "Temple of Thoth Hill", "description": "Rare archaic temple ruins located on a high peak of the Theban hills.", "location": { "lat": 25.7450, "lng": 32.5950 } },
  { "title": "Monastery of St. George (West Bank)", "description": "Active Coptic monastery near Medinet Habu, built on ancient remains.", "location": { "lat": 25.7180, "lng": 32.5990 } },
  { "title": "Tomb of Pashedu (TT3)", "description": "Hidden gem in Deir el-Medina famous for the scene of the deceased drinking from a palm tree.", "location": { "lat": 25.7290, "lng": 32.6012 } },
  { "title": "Meretsegerv (The Peak)", "description": "The pyramid-shaped mountain overlooking the Valley of the Kings, sacred to the cobra goddess.", "location": { "lat": 25.7390, "lng": 32.5950 } },
  { "title": "Temple of Merenptah", "description": "Mortuary temple of Pharaoh Merenptah, featuring a museum with beautiful reliefs.", "location": { "lat": 25.7229, "lng": 32.6111 } },
  { "title": "Gebelein", "description": "Area south of Luxor with remains of a Temple of Hathor.", "location": { "lat": 25.4850, "lng": 32.4850 } },
  { "title": "Chapels of the Divine Adoratrices", "description": "Mortuary chapels for the God's Wives of Amun located within Medinet Habu.", "location": { "lat": 25.7194, "lng": 32.6009 } }
]