[
  {
    "title": "Quweisna Archaeological Area",
    "description": "The most significant archaeological site in the Delta, containing a large necropolis, mausoleums, and a sacred falcon cemetery.",
    "era": "Pharaonic (New Kingdom), Ptolemaic, Roman",
    "district": "Quweisna",
    "location": { "lat": 30.5667, "lng": 31.1333 }
  },
  {
    "title": "Falcon Necropolis",
    "description": "A unique section of the Quweisna site dedicated to the burial of sacred falcons (Horus), indicating the site's religious importance.",
    "era": "Late Period / Ptolemaic",
    "district": "Quweisna",
    "location": { "lat": 30.5670, "lng": 31.1335 }
  },
  {
    "title": "Mudbrick Mausoleums of Quweisna",
    "description": "A collection of ancient mausoleums built from mudbrick, reflecting different architectural styles over centuries of use.",
    "era": "Roman Period",
    "district": "Quweisna",
    "location": { "lat": 30.5665, "lng": 31.1330 }
  },
  {
    "title": "Sidi Shebl Al-Aswad Mosque",
    "description": "A major Islamic shrine dedicated to Mohammed Ibn Al-Fadl (Sidi Shebl), containing his mausoleum. It is a site of significant pilgrimage.",
    "era": "Islamic (Fatimid, rebuilt later)",
    "district": "El Shohada",
    "location": { "lat": 30.5976, "lng": 30.8988 }
  },
  {
    "title": "Mausoleum of Sidi Shebl",
    "description": "The tomb of the martyr Sidi Shebl and his sisters, located within the mosque complex in El Shohada (City of Martyrs).",
    "era": "Islamic",
    "district": "El Shohada",
    "location": { "lat": 30.5977, "lng": 30.8989 }
  },
  {
    "title": "Al-Omari Mosque (Ashmoun)",
    "description": "One of the oldest mosques in the governorate, built on the ruins of an ancient Roman fortress.",
    "era": "Islamic (Ayyubid / Mamluk)",
    "district": "Ashmoun",
    "location": { "lat": 30.2986, "lng": 30.9763 }
  },
  {
    "title": "Al-Abbasi Mosque",
    "description": "A prominent historical mosque in the capital, renovated during the reign of Khedive Abbas Helmy II.",
    "era": "Islamic (Ottoman / 19th Century)",
    "district": "Shibin El Kom",
    "location": { "lat": 30.5503, "lng": 31.0106 }
  },
  {
    "title": "Sidi Khamis Mosque",
    "description": "An important historic mosque located in the capital city, Shibin El Kom, known for its religious significance.",
    "era": "Islamic",
    "district": "Shibin El Kom",
    "location": { "lat": 30.5550, "lng": 31.0150 }
  },
  {
    "title": "Mosque of Sidi Ibrahim",
    "description": "A revered mosque in the city of Minuf, dedicated to the local saint Sidi Ibrahim.",
    "era": "Islamic",
    "district": "Minuf",
    "location": { "lat": 30.4660, "lng": 30.9300 }
  },
  {
    "title": "Palace of Abdel-Aziz Pasha Fahmy",
    "description": "The historic residence of the famous Egyptian politician and judge, now often used for cultural events.",
    "era": "Modern (19th/20th Century)",
    "district": "Kafr El-Maselha",
    "location": { "lat": 30.5330, "lng": 31.0330 }
  },
  {
    "title": "Dar Kebira (The Great House)",
    "description": "A historic residence in Minuf representing traditional architecture of the region's notables.",
    "era": "Ottoman Era",
    "district": "Minuf",
    "location": { "lat": 30.4650, "lng": 30.9310 }
  },
  {
    "title": "Tell El-Bandaria",
    "description": "An archaeological mound containing remains of ancient settlements, located near Tala.",
    "era": "Graeco-Roman",
    "district": "Tala (Bandaria Village)",
    "location": { "lat": 30.6600, "lng": 30.9500 }
  },
  {
    "title": "Tell Sirsna",
    "description": "An archaeological hill (tell) in El Shohada district with buried ancient structures.",
    "era": "Ancient Egyptian",
    "district": "El Shohada (Sirsna)",
    "location": { "lat": 30.5900, "lng": 30.8900 }
  },
  {
    "title": "Tell Zawiyet Razin",
    "description": "A significant tell containing layers of history from the Pharaonic to Roman periods.",
    "era": "Pharaonic / Graeco-Roman",
    "district": "Minuf (Zawiyet Razin)",
    "location": { "lat": 30.4500, "lng": 30.9000 }
  },
  {
    "title": "Tell Al-Ahmar",
    "description": "An archaeological site known for finds of pottery and small artifacts.",
    "era": "Graeco-Roman",
    "district": "Menoufia",
    "location": { "lat": 30.5000, "lng": 30.9500 }
  },
  {
    "title": "Tell Nadir",
    "description": "Another archaeological mound in the governorate, part of the network of ancient settlements in the Delta.",
    "era": "Ancient Egyptian",
    "district": "El Shohada (Nadir Village)",
    "location": { "lat": 30.5800, "lng": 30.8500 }
  },
  {
    "title": "Church of St. George (Mar Girgis)",
    "description": "One of the oldest Coptic churches in the region, located in the village of Tubar.",
    "era": "Coptic",
    "district": "Tubar",
    "location": { "lat": 30.5200, "lng": 31.0000 }
  },
  {
    "title": "Monastery of Archangel Michael",
    "description": "A Coptic monastery located near Minuf, preserving Christian heritage in the governorate.",
    "era": "Coptic",
    "district": "Minuf",
    "location": { "lat": 30.4700, "lng": 30.9200 }
  },
  {
    "title": "Denshway Museum",
    "description": "A national museum commemorating the 1906 Denshway Incident and the Egyptian resistance against British occupation.",
    "era": "Modern (1906 / Opened 1999)",
    "district": "El Shohada (Denshway)",
    "location": { "lat": 30.6389, "lng": 30.8528 }
  },
  {
    "title": "Sadat Museum",
    "description": "A museum dedicated to the life of President Anwar El Sadat, located in his home village.",
    "era": "Modern",
    "district": "Tala (Mit Abu El Kom)",
    "location": { "lat": 30.6358, "lng": 30.9161 }
  },
  {
    "title": "Pharaonic Obelisk of Shibin",
    "description": "Originally from Athribis (Benha), these granite obelisk fragments are displayed in Shibin El Kom.",
    "era": "Ancient Egyptian (Ramesside)",
    "district": "Shibin El Kom",
    "location": { "lat": 30.5520, "lng": 31.0120 }
  },
  {
    "title": "Sidi Ezz El-Din Mosque",
    "description": "A historic mosque in Tala district, noted for its local architectural style.",
    "era": "Islamic",
    "district": "Tala",
    "location": { "lat": 30.6800, "lng": 30.9400 }
  },
  {
    "title": "Village of Sahragt Architectural Remains",
    "description": "Area containing remnants of older settlements and traditional baths.",
    "era": "Islamic / Ottoman",
    "district": "Menoufia",
    "location": { "lat": 30.6000, "lng": 31.0000 }
  },
  {
    "title": "Historic Gates of Ashmoun",
    "description": "Remains of the old gates that once protected the city of Ashmoun.",
    "era": "Medieval Islamic",
    "district": "Ashmoun",
    "location": { "lat": 30.2990, "lng": 30.9760 }
  },
  {
    "title": "Al-Mahatta Mosque",
    "description": "A distinctive mosque located near the station area in Shibin El Kom.",
    "era": "Modern/Islamic",
    "district": "Shibin El Kom",
    "location": { "lat": 30.5560, "lng": 31.0140 }
  }
]
