[
  {
    "title": "Port Said Lighthouse",
    "district": "Port Said City (Waterfront)",
    "era": "Modern (1869)",
    "description": "The first lighthouse in the world to be built from reinforced concrete. An iconic octagonal tower standing 56 meters high, symbolizing the maritime history of the Suez Canal.",
    "location": { "lat": 31.2636, "lng": 32.3019 }
  },
  {
    "title": "Suez Canal Authority Building (The Dome)",
    "district": "Port Said City (Canal Bank)",
    "era": "Modern (1895)",
    "description": "A magnificent architectural landmark originally built as the administrative headquarters for the Suez Canal Company. It features three green domes and combines Islamic and European architectural elements.",
    "location": { "lat": 31.2561, "lng": 32.2961 }
  },
  {
    "title": "De Lesseps Statue Base",
    "district": "Port Said Harbor Entrance",
    "era": "Modern (1899)",
    "description": "The monumental pedestal where the statue of Ferdinand de Lesseps once stood. It remains a historical landmark at the northern entrance of the Suez Canal, offering panoramic views of incoming ships.",
    "location": { "lat": 31.2680, "lng": 32.3050 }
  },
  {
    "title": "Al-Abbasi Mosque",
    "district": "Port Said City (Al-Arab)",
    "era": "Modern (1904)",
    "description": "Built by Khedive Abbas Helmy II, this is the second oldest mosque in Port Said and remains a prime example of Islamic architecture from the Khedivial period, featuring elaborate decorations.",
    "location": { "lat": 31.2600, "lng": 32.2900 }
  },
  {
    "title": "Al-Tawfiqui Mosque",
    "district": "Port Said City",
    "era": "Modern (1882)",
    "description": "The very first mosque established in Port Said. It holds significant historical value as the city's oldest Islamic place of worship, predating the Abbasi mosque.",
    "location": { "lat": 31.2580, "lng": 32.2880 }
  },
  {
    "title": "St. Eugénie Church",
    "district": "Port Said City",
    "era": "Modern (1890)",
    "description": "The oldest church in Port Said, built in a Neo-Baroque style. It stands on the site of an earlier wooden chapel and is named after the Empress Eugénie of France.",
    "location": { "lat": 31.2620, "lng": 32.2950 }
  },
  {
    "title": "Latin Cathedral (Cathedral of Our Lady)",
    "district": "Port Said City",
    "era": "Modern (1930s)",
    "description": "A massive cathedral featuring imposing architecture, serving the Catholic community and standing as a testament to the city's cosmopolitan past.",
    "location": { "lat": 31.2610, "lng": 32.2980 }
  },
  {
    "title": "Coptic Orthodox Cathedral of the Virgin Mary",
    "district": "Port Said City",
    "era": "Modern",
    "description": "A prominent Coptic cathedral known for its beautiful icons and religious significance to the local Christian community.",
    "location": { "lat": 31.2550, "lng": 32.2900 }
  },
  {
    "title": "Simon Arzt Building",
    "district": "Port Said City (Waterfront)",
    "era": "Modern (Early 20th Century)",
    "description": "A historic department store building with a distinctive facade, once one of the most famous shopping destinations for travelers transiting the Suez Canal.",
    "location": { "lat": 31.2630, "lng": 32.3000 }
  },
  {
    "title": "Italian Consulate Building",
    "district": "Port Said City",
    "era": "Modern (1930s)",
    "description": "An architectural gem reflecting Italian Fascist-era architecture, originally serving as the consulate for the large Italian community in the city.",
    "location": { "lat": 31.2640, "lng": 32.2990 }
  },
  {
    "title": "Obelisk of the Martyrs",
    "district": "Port Said City",
    "era": "Modern (Memorial)",
    "description": "A Pharaonic-style obelisk erected as a memorial to the martyrs of Port Said who died defending the city during the Tripartite Aggression in 1956.",
    "location": { "lat": 31.2590, "lng": 32.2920 }
  },
  {
    "title": "Port Said Military Museum",
    "district": "Port Said City",
    "era": "Modern (1964)",
    "description": "A museum documenting the military history of the city, particularly the 1956 Suez Crisis, featuring outdoor displays of captured tanks and aircraft.",
    "location": { "lat": 31.2650, "lng": 32.2930 }
  },
  {
    "title": "Port Fuad Historic Villas",
    "district": "Port Fuad",
    "era": "Modern (Colonial Era)",
    "description": "A district characterized by French-style villas and gardens, designed by the Suez Canal Company for its employees, preserving a unique European ambiance.",
    "location": { "lat": 31.2500, "lng": 32.3200 }
  },
  {
    "title": "Tell Tinnis (Tennis Island)",
    "district": "Lake Manzala",
    "era": "Islamic (Medieval)",
    "description": "The ruins of a wealthy medieval island city famous for its textiles. It was abandoned and destroyed during the Crusades. A major hidden archaeological gem.",
    "location": { "lat": 31.2000, "lng": 31.9000 }
  },
  {
    "title": "Tell El-Gamil",
    "district": "West Port Said",
    "era": "Historical",
    "description": "Site of an old tower or fortification guarding the coastal entrance to Lake Manzala.",
    "location": { "lat": 31.2800, "lng": 32.2000 }
  },
  {
    "title": "Tell El-Loulou",
    "district": "Lake Manzala",
    "era": "Roman / Islamic",
    "description": "Archaeological mound located on an island in the lake, containing settlement remains.",
    "location": { "lat": 31.2200, "lng": 32.0000 }
  },
  {
    "title": "Tell El-Qanater",
    "district": "Lake Manzala / South Port Said",
    "era": "Roman",
    "description": "Archaeological site with remains of ancient hydraulic structures or settlements.",
    "location": { "lat": 31.1500, "lng": 32.1000 }
  },
  {
    "title": "Tabiet El-Gamil (Fort)",
    "district": "West Port Said (Gamil Airport)",
    "era": "Modern (WWII / 1956)",
    "description": "Historic airfield and fortification area that saw heavy fighting during the 1956 war.",
    "location": { "lat": 31.2850, "lng": 32.2200 }
  },
  {
    "title": "Commonwealth War Cemetery",
    "district": "Port Said City",
    "era": "Modern (WWI / WWII)",
    "description": "Beautifully maintained cemetery containing the graves of Commonwealth soldiers who died in the world wars.",
    "location": { "lat": 31.2700, "lng": 32.2800 }
  },
  {
    "title": "Villa Fernande",
    "district": "Port Said City",
    "era": "Modern (19th Century)",
    "description": "One of the oldest surviving wooden structures in the city, offering a glimpse into early canal-era architecture.",
    "location": { "lat": 31.2615, "lng": 32.2960 }
  },
  {
    "title": "Greek Orthodox Church",
    "district": "Port Said City",
    "era": "Modern (1890s)",
    "description": "Historic church serving the Greek community, featuring distinctive Byzantine-style architecture.",
    "location": { "lat": 31.2625, "lng": 32.2970 }
  },
  {
    "title": "Bishara Building",
    "district": "Port Said City",
    "era": "Modern",
    "description": "A notable heritage building with distinct architectural features in the old Quarter.",
    "location": { "lat": 31.2595, "lng": 32.2910 }
  },
  {
    "title": "Tell Ibn Salam",
    "district": "Lake Manzala",
    "era": "Islamic",
    "description": "Archaeological site containing the shrine and mosque of Sheikh Ibn Salam, a medieval ascetic.",
    "location": { "lat": 31.2100, "lng": 31.9100 }
  },
  {
    "title": "Tell El-Farama (Pelusium) - Port Said Access",
    "district": "East Port Said (Sinai Border)",
    "era": "Greco-Roman / Coptic",
    "description": "The site of Ancient Pelusium. Although geographically mostly in Sinai, it is often managed/accessed via the East Port Said zone.",
    "location": { "lat": 31.0441, "lng": 32.5532 }
  },
  {
    "title": "Grand Hotel de la Poste",
    "district": "Port Said City",
    "era": "Modern (Historic)",
    "description": "One of the historic hotels of the city, reflecting the golden age of tourism.",
    "location": { "lat": 31.2605, "lng": 32.2955 }
  },
  {
    "title": "House of the Canal Administration (Heia)",
    "district": "Port Said City",
    "era": "Modern",
    "description": "The surrounding complex of the main Dome building, including gardens and ancillary historic structures.",
    "location": { "lat": 31.2565, "lng": 32.2965 }
  }
]
