[
  { "title": "Temple of Seti I", "description": "Abydos. New Kingdom (19th Dynasty). Major cult center of Osiris, famous for the Abydos King List and exquisite reliefs.", "location": { "lat": 26.1848, "lng": 31.9192 } },
  { "title": "Temple of Ramses II", "description": "Abydos. New Kingdom (19th Dynasty). Dedicated to Osiris and the deified ancestors, noted for vivid color preservation.", "location": { "lat": 26.1873, "lng": 31.9160 } },
  { "title": "The Osireion", "description": "Abydos. New Kingdom. A subterranean cenotaph structure located behind the Temple of Seti I, meant to resemble the tomb of Osiris.", "location": { "lat": 26.1837, "lng": 31.9184 } },
  { "title": "Shunet el-Zebib", "description": "Abydos. Early Dynastic (2nd Dynasty). A massive mudbrick funerary enclosure built by King Khasekhemwy.", "location": { "lat": 26.1917, "lng": 31.9059 } },
  { "title": "Kom el-Sultan", "description": "Abydos. Early Dynastic to Late Period. The settlement area containing the early Temple of Osiris ruins.", "location": { "lat": 26.1950, "lng": 31.9080 } },
  { "title": "Umm el-Qa'ab", "description": "Abydos. Early Dynastic (1st & 2nd Dynasties). The royal necropolis containing the tombs of Egypt's first pharaohs.", "location": { "lat": 26.1749, "lng": 31.9030 } },
  { "title": "Tomb of Djer", "description": "Abydos (Umm el-Qa'ab). 1st Dynasty. Tomb of the third pharaoh, later revered as the Tomb of Osiris.", "location": { "lat": 26.1755, "lng": 31.9035 } },
  { "title": "Tomb of Den", "description": "Abydos (Umm el-Qa'ab). 1st Dynasty. One of the largest tombs with a granite floor, significant for architectural evolution.", "location": { "lat": 26.1740, "lng": 31.9030 } },
  { "title": "Tetisheri Pyramid/Cenotaph", "description": "South Abydos. New Kingdom (18th Dynasty). A pyramid built by Ahmose I for his grandmother Queen Tetisheri.", "location": { "lat": 26.1700, "lng": 31.9200 } },
  { "title": "Pyramid of Ahmose", "description": "South Abydos. New Kingdom (18th Dynasty). The last royal pyramid built in Egypt, part of Ahmose's mortuary complex.", "location": { "lat": 26.1710, "lng": 31.9210 } },
  { "title": "Abydos Boat Graves", "description": "Abydos. Early Dynastic. A fleet of 14 buried wooden boats discovered near Shunet el-Zebib.", "location": { "lat": 26.1925, "lng": 31.9065 } },
  { "title": "Statue of Meritamun", "description": "Akhmim. New Kingdom (19th Dynasty). A colossal limestone statue of Ramses II's daughter-wife, now in an open-air museum.", "location": { "lat": 26.5635, "lng": 31.7456 } },
  { "title": "Temple of Min Ruins", "description": "Akhmim. Greco-Roman Period. Scanty remains of a once-massive temple dedicated to the fertility god Min.", "location": { "lat": 26.5632, "lng": 31.7455 } },
  { "title": "El-Hawawish", "description": "Akhmim (East Bank). Old Kingdom to Late Period. The main necropolis of the ancient city of Panopolis (Akhmim).", "location": { "lat": 26.5800, "lng": 31.7800 } },
  { "title": "El-Salamuni", "description": "Akhmim (East Bank). Greco-Roman. Features rock-cut tombs, a temple of Min built by Ay, and Coptic paintings.", "location": { "lat": 26.6000, "lng": 31.7900 } },
  { "title": "Temple of Triphis", "description": "Athribis (Wannina). Ptolemaic (Ptolemy XII). A large temple dedicated to the lioness goddess Triphis (Repyt).", "location": { "lat": 26.5050, "lng": 31.6660 } },
  { "title": "Roman Scenic Tomb", "description": "Athribis (Wannina). Roman Period. A tomb featuring zodiac ceilings and detailed colorful astrological scenes.", "location": { "lat": 26.5045, "lng": 31.6655 } },
  { "title": "White Monastery (Deir al-Abyad)", "description": "Sohag (West Bank). Coptic (5th Century AD). Established by St. Shenouda, built with white limestone from Pharaonic temples.", "location": { "lat": 26.5348, "lng": 31.6469 } },
  { "title": "Red Monastery (Deir al-Ahmar)", "description": "Sohag (West Bank). Coptic (4th Century AD). Famous for its church sanctuary featuring exceptionally preserved ancient frescoes.", "location": { "lat": 26.5516, "lng": 31.6253 } },
  { "title": "Sidi Arif Mosque", "description": "Sohag City. Islamic (Mamluk/Ottoman style). One of the oldest and most significant mosques in the city, known for its distinct minarets.", "location": { "lat": 26.5560, "lng": 31.6950 } },
  { "title": "Al-Atiq Mosque (Al-Farshuti)", "description": "Sohag City. Islamic (Fatimid origins). Also known as the Old Mosque, it holds historical significance in the region.", "location": { "lat": 26.5540, "lng": 31.6940 } },
  { "title": "Sidi Galal Mosque (Porcelain Mosque)", "description": "Sohag City. Islamic. Known for its intricate ceramic/porcelain decoration (Qishani)..", "location": { "lat": 26.5575, "lng": 31.6965 } },
  { "title": "Masjid Al-Amir Hassan", "description": "Akhmim. Islamic (Ottoman Era). Contains the mausoleum of Prince Hassan, known for its fine woodwork and dome.", "location": { "lat": 26.5620, "lng": 31.7445 } },
  { "title": "Beit Khallaf Mastaba K1", "description": "Beit Khallaf. 3rd Dynasty. A massive mudbrick mastaba attributed to Djoser or Sanakht.", "location": { "lat": 26.3000, "lng": 31.7800 } },
  { "title": "Beit Khallaf Mastaba K2", "description": "Beit Khallaf. 3rd Dynasty. Another large mudbrick mastaba in the same necropolis.", "location": { "lat": 26.3015, "lng": 31.7815 } },
  { "title": "El-Hagarsa", "description": "West of Sohag. Old Kingdom to First Intermediate Period. A necropolis with rock-cut tombs of local governors.", "location": { "lat": 26.4300, "lng": 31.6800 } },
  { "title": "Gebel al-Haridi", "description": "East Bank (Nazlet el-Haridi). Coptic/Pharaonic. Features quarries, Ptolemaic inscriptions, and ancient Coptic hermitages.", "location": { "lat": 26.7800, "lng": 31.5500 } },
  { "title": "Kom Ishqaw (Aphrodito)", "description": "Tama District. Coptic/Byzantine. Ancient city of Aphrodito, famous for the discovery of the Aphrodito Papyri.", "location": { "lat": 26.8500, "lng": 31.4200 } },
  { "title": "Sohag National Museum", "description": "Sohag City. Modern. Houses thousands of artifacts from the governorate, including items from Abydos and Akhmim.", "location": { "lat": 26.5650, "lng": 31.7000 } },
  { "title": "Deir el-Malak (Monastery of the Angel)", "description": "Akhmim (East of city). Coptic. Dedicated to Archangel Michael, located in a desert area near El-Salamuni.", "location": { "lat": 26.5700, "lng": 31.7600 } },
  { "title": "Deir al-Shuhada (Monastery of Martyrs)", "description": "Akhmim. Coptic. Dedicated to the martyrs of the Diocletianic Persecution.", "location": { "lat": 26.5600, "lng": 31.7700 } },
  { "title": "Deir Anba Bisada", "description": "Opposite Sohag (East Bank). Coptic. An ancient monastery featuring distinct Coptic architecture.", "location": { "lat": 26.4800, "lng": 31.7000 } },
  { "title": "Deir Mar Girgis (Iron)", "description": "Akhmim. Coptic. The Monastery of St. George, known locally as Deir Al-Hadid.", "location": { "lat": 26.5700, "lng": 31.7500 } },
  { "title": "Deir El-Adhra (Virgin Mary)", "description": "Akhmim (El-Hawawish area). Coptic. Located high on the mountain near the necropolis.", "location": { "lat": 26.5820, "lng": 31.7820 } },
  { "title": "Deir Anba Thomas", "description": "Near Akhmim (Shinera). Coptic. Dedicated to St. Thomas the Hermit.", "location": { "lat": 26.6500, "lng": 31.6000 } },
  { "title": "Naga ed-Deir", "description": "Opposite Girga (East Bank). Predynastic to Middle Kingdom. A vast cemetery site yielding significant archaeological finds.", "location": { "lat": 26.3500, "lng": 31.9000 } },
  { "title": "El-Mahasna", "description": "North of Abydos. Predynastic. A significant settlement and cemetery site from the Naqada period.", "location": { "lat": 26.2800, "lng": 31.8500 } },
  { "title": "Reqaqnah", "description": "West of Gerga. 3rd Dynasty. Necropolis containing staircase mastabas.", "location": { "lat": 26.2700, "lng": 31.8000 } },
  { "title": "El-Mashayikh (Lepidotonpolis)", "description": "East Bank (Opposite Girga). New Kingdom. Site of a rock-cut temple built by Amenhotep III.", "location": { "lat": 26.2500, "lng": 31.9500 } },
  { "title": "El-Amra", "description": "South of Abydos. Predynastic (Naqada). Type-site for the Amratian culture.", "location": { "lat": 26.1500, "lng": 32.0000 } },
  { "title": "Wannina Temple Enclosure", "description": "Athribis (Wannina). Greco-Roman. The broader archaeological area surrounding the Temple of Triphis.", "location": { "lat": 26.5060, "lng": 31.6670 } },
  { "title": "Chapel of Ay", "description": "El-Salamuni (Akhmim). New Kingdom (18th Dynasty). A rock-cut shrine dedicated to Min by King Ay.", "location": { "lat": 26.6010, "lng": 31.7910 } },
  { "title": "Al-Kawamil", "description": "West Bank (South of Sohag). Predynastic. A major settlement and cemetery site.", "location": { "lat": 26.4500, "lng": 31.7500 } },
  { "title": "Tomb of Khasekhemwy", "description": "Abydos (Umm el-Qa'ab). 2nd Dynasty. The last and largest tomb in the royal cemetery.", "location": { "lat": 26.1720, "lng": 31.9020 } },
  { "title": "Coptic Church of St. Demiana", "description": "Akhmim. Coptic. A historic church revered in the local tradition.", "location": { "lat": 26.5640, "lng": 31.7460 } },
  { "title": "Mosque of Sheikh Mursi", "description": "Sohag City. Islamic. A notable local mosque and religious landmark.", "location": { "lat": 26.5500, "lng": 31.6900 } },
  { "title": "Tomb of Peribsen", "description": "Abydos (Umm el-Qa'ab). 2nd Dynasty. Tomb of the Seth-worshipping king, located north of Khasekhemwy.", "location": { "lat": 26.1730, "lng": 31.9025 } },
  { "title": "Askala Temple (Athribis)", "description": "Athribis (Wannina). Ptolemaic (Ptolemy IX). A smaller temple dedicated to the child god Kolanthes.", "location": { "lat": 26.5030, "lng": 31.6640 } }
]